[
  {
    "iata": "ATL",
    "name": "Hartsfield-Jackson Atlanta International Airport",
    "city": "Atlanta",
    "state": "Georgia",
    "country": "United States",
    "latitude": 33.6407,
    "longitude": -84.4277
  },
  {
    "iata": "PEK",
    "name": "Beijing Capital International Airport",
    "city": "Beijing",
    "state": "Beijing",
    "country": "China",
    "latitude": 40.0801,
    "longitude": 116.5846
  },
  {
    "iata": "LAX",
    "name": "Los Angeles International Airport",
    "city": "Los Angeles",
    "state": "California",
    "country": "United States",
    "latitude": 33.9416,
    "longitude": -118.4085
  },
  {
    "iata": "DXB",
    "name": "Dubai International Airport",
    "city": "Dubai",
    "state": "Dubai",
    "country": "United Arab Emirates",
    "latitude": 25.2532,
    "longitude": 55.3657
  },
  {
    "iata": "HND",
    "name": "Tokyo Haneda Airport",
    "city": "Tokyo",
    "state": "Tokyo",
    "country": "Japan",
    "latitude": 35.5494,
    "longitude": 139.7798
  },
  {
    "iata": "ORD",
    "name": "O'Hare International Airport",
    "city": "Chicago",
    "state": "Illinois",
    "country": "United States",
    "latitude": 41.9742,
    "longitude": -87.9073
  },
  {
    "iata": "LHR",
    "name": "London Heathrow Airport",
    "city": "London",
    "state": "England",
    "country": "United Kingdom",
    "latitude": 51.4700,
    "longitude": -0.4543
  },
  {
    "iata": "PVG",
    "name": "Shanghai Pudong International Airport",
    "city": "Shanghai",
    "state": "Shanghai",
    "country": "China",
    "latitude": 31.1443,
    "longitude": 121.8083
  },
  {
    "iata": "CDG",
    "name": "Charles de Gaulle Airport",
    "city": "Paris",
    "state": "Île-de-France",
    "country": "France",
    "latitude": 49.0097,
    "longitude": 2.5479
  },
  {
    "iata": "DFW",
    "name": "Dallas/Fort Worth International Airport",
    "city": "Dallas-Fort Worth",
    "state": "Texas",
    "country": "United States",
    "latitude": 32.8998,
    "longitude": -97.0403
  },
  {
    "iata": "AMS",
    "name": "Amsterdam Airport Schiphol",
    "city": "Amsterdam",
    "state": "North Holland",
    "country": "Netherlands",
    "latitude": 52.3105,
    "longitude": 4.7683
  },
  {
    "iata": "FRA",
    "name": "Frankfurt am Main Airport",
    "city": "Frankfurt",
    "state": "Hesse",
    "country": "Germany",
    "latitude": 50.0379,
    "longitude": 8.5622
  },
  {
    "iata": "IST",
    "name": "Istanbul Airport",
    "city": "Istanbul",
    "state": "Istanbul",
    "country": "Turkey",
    "latitude": 41.2753,
    "longitude": 28.7519
  },
  {
    "iata": "CAN",
    "name": "Guangzhou Baiyun International Airport",
    "city": "Guangzhou",
    "state": "Guangdong",
    "country": "China",
    "latitude": 23.3924,
    "longitude": 113.2988
  },
  {
    "iata": "JFK",
    "name": "John F. Kennedy International Airport",
    "city": "New York City",
    "state": "New York",
    "country": "United States",
    "latitude": 40.6413,
    "longitude": -73.7781
  },
  {
    "iata": "SIN",
    "name": "Singapore Changi Airport",
    "city": "Singapore",
    "state": "East Region",
    "country": "Singapore",
    "latitude": 1.3644,
    "longitude": 103.9915
  },
  {
    "iata": "DEN",
    "name": "Denver International Airport",
    "city": "Denver",
    "state": "Colorado",
    "country": "United States",
    "latitude": 39.8561,
    "longitude": -104.6737
  },
  {
    "iata": "ICN",
    "name": "Incheon International Airport",
    "city": "Incheon",
    "state": "Incheon",
    "country": "South Korea",
    "latitude": 37.4602,
    "longitude": 126.4407
  },
  {
    "iata": "BKK",
    "name": "Suvarnabhumi Airport",
    "city": "Bangkok",
    "state": "Bangkok",
    "country": "Thailand",
    "latitude": 13.689999,
    "longitude": 100.7501
  },
  {
    "iata": "SFO",
    "name": "San Francisco International Airport",
    "city": "San Francisco",
    "state": "California",
    "country": "United States",
    "latitude": 37.6213,
    "longitude": -122.3790
  },
  {
    "iata": "LAS",
    "name": "McCarran International Airport",
    "city": "Las Vegas",
    "state": "Nevada",
    "country": "United States",
    "latitude": 36.0840,
    "longitude": -115.1537
  },
  {
    "iata": "CLT",
    "name": "Charlotte Douglas International Airport",
    "city": "Charlotte",
    "state": "North Carolina",
    "country": "United States",
    "latitude": 35.2140,
    "longitude": -80.9431
  },
  {
    "iata": "MIA",
    "name": "Miami International Airport",
    "city": "Miami",
    "state": "Florida",
    "country": "United States",
    "latitude": 25.7959,
    "longitude": -80.2870
  },
  {
    "iata": "KUL",
    "name": "Kuala Lumpur International Airport",
    "city": "Kuala Lumpur",
    "state": "Selangor",
    "country": "Malaysia",
    "latitude": 2.7456,
    "longitude": 101.7072
  },
  {
    "iata": "SEA",
    "name": "Seattle-Tacoma International Airport",
    "city": "Seattle",
    "state": "Washington",
    "country": "United States",
    "latitude": 47.4502,
    "longitude": -122.3088
  },
  {
    "iata": "MUC",
    "name": "Munich Airport",
    "city": "Munich",
    "state": "Bavaria",
    "country": "Germany",
    "latitude": 48.3538,
    "longitude": 11.7861
  },
  {
    "iata": "EWR",
    "name": "Newark Liberty International Airport",
    "city": "Newark",
    "state": "New Jersey",
    "country": "United States",
    "latitude": 40.6895,
    "longitude": -74.1745
  },
  {
    "iata": "MAD",
    "name": "Adolfo Suárez Madrid–Barajas Airport",
    "city": "Madrid",
    "state": "Community of Madrid",
    "country": "Spain",
    "latitude": 40.4719,
    "longitude": -3.5626
  },
  {
    "iata": "HKG",
    "name": "Hong Kong International Airport",
    "city": "Hong Kong",
    "state": "New Territories",
    "country": "Hong Kong",
    "latitude": 22.3080,
    "longitude": 113.9185
  },
  {
    "iata": "MCO",
    "name": "Orlando International Airport",
    "city": "Orlando",
    "state": "Florida",
    "country": "United States",
    "latitude": 28.4312,
    "longitude": -81.3081
  },
  {
    "iata": "PHX",
    "name": "Phoenix Sky Harbor International Airport",
    "city": "Phoenix",
    "state": "Arizona",
    "country": "United States",
    "latitude": 33.4342,
    "longitude": -112.0116
  },
  {
    "iata": "IAH",
    "name": "George Bush Intercontinental Airport",
    "city": "Houston",
    "state": "Texas",
    "country": "United States",
    "latitude": 29.9902,
    "longitude": -95.3368
  },
  {
    "iata": "SYD",
    "name": "Sydney Kingsford Smith Airport",
    "city": "Sydney",
    "state": "New South Wales",
    "country": "Australia",
    "latitude": -33.9399,
    "longitude": 151.1753
  },
  {
    "iata": "MEL",
    "name": "Melbourne Airport",
    "city": "Melbourne",
    "state": "Victoria",
    "country": "Australia",
    "latitude": -37.6690,
    "longitude": 144.8410
  },
  {
    "iata": "GRU",
    "name": "São Paulo–Guarulhos International Airport",
    "city": "São Paulo",
    "state": "São Paulo",
    "country": "Brazil",
    "latitude": -23.4356,
    "longitude": -46.4731
  },
  {
    "iata": "YYZ",
    "name": "Toronto Pearson International Airport",
    "city": "Toronto",
    "state": "Ontario",
    "country": "Canada",
    "latitude": 43.6777,
    "longitude": -79.6248
  },
  {
    "iata": "LGW",
    "name": "London Gatwick Airport",
    "city": "London",
    "state": "England",
    "country": "United Kingdom",
    "latitude": 51.1537,
    "longitude": -0.1821
  },
  {
    "iata": "BCN",
    "name": "Barcelona–El Prat Airport",
    "city": "Barcelona",
    "state": "Catalonia",
    "country": "Spain",
    "latitude": 41.2974,
    "longitude": 2.0833
  },
  {
    "iata": "MAN",
    "name": "Manchester Airport",
    "city": "Manchester",
    "state": "England",
    "country": "United Kingdom",
    "latitude": 53.3650,
    "longitude": -2.2720
  },
  {
    "iata": "BOM",
    "name": "Chhatrapati Shivaji Maharaj International Airport",
    "city": "Mumbai",
    "state": "Maharashtra",
    "country": "India",
    "latitude": 19.0896,
    "longitude": 72.8656
  },
  {
    "iata": "DEL",
    "name": "Indira Gandhi International Airport",
    "city": "New Delhi",
    "state": "Delhi",
    "country": "India",
    "latitude": 28.5562,
    "longitude": 77.1000
  },
  {
    "iata": "ZRH",
    "name": "Zurich Airport",
    "city": "Zurich",
    "state": "Canton of Zurich",
    "country": "Switzerland",
    "latitude": 47.4647,
    "longitude": 8.5492
  },
  {
    "iata": "SVO",
    "name": "Sheremetyevo International Airport",
    "city": "Moscow",
    "state": "Moscow Oblast",
    "country": "Russia",
    "latitude": 55.9726,
    "longitude": 37.4146
  },
  {
    "iata": "DME",
    "name": "Domodedovo International Airport",
    "city": "Moscow",
    "state": "Moscow Oblast",
    "country": "Russia",
    "latitude": 55.4088,
    "longitude": 37.9063
  },
  {
    "iata": "JNB",
    "name": "O. R. Tambo International Airport",
    "city": "Johannesburg",
    "state": "Gauteng",
    "country": "South Africa",
    "latitude": -26.1337,
    "longitude": 28.2425
  },
  {
    "iata": "ARN",
    "name": "Stockholm Arlanda Airport",
    "city": "Stockholm",
    "state": "Stockholm",
    "country": "Sweden",
    "latitude": 59.6519,
    "longitude": 17.9186
  },
  {
    "iata": "OSL",
    "name": "Oslo Gardermoen Airport",
    "city": "Oslo",
    "state": "Viken",
    "country": "Norway",
    "latitude": 60.1976,
    "longitude": 11.1004
  },
  {
    "iata": "CPH",
    "name": "Copenhagen Airport",
    "city": "Copenhagen",
    "state": "Capital Region",
    "country": "Denmark",
    "latitude": 55.6180,
    "longitude": 12.6560
  },
  {
    "iata": "HEL",
    "name": "Helsinki-Vantaa Airport",
    "city": "Helsinki",
    "state": "Uusimaa",
    "country": "Finland",
    "latitude": 60.3172,
    "longitude": 24.9633
  },
  {
    "iata": "VIE",
    "name": "Vienna International Airport",
    "city": "Vienna",
    "state": "Lower Austria",
    "country": "Austria",
    "latitude": 48.1103,
    "longitude": 16.5697
  }
]
